{
  "markers": [
    {
      "lng": "-84.0258265",
      "lat": "35.9512977",
      "address": "1501 Dowell Springs Blvd, Knoxville, TN 37909, USA",
      "url": "https://www.fbi.gov/contact-us/field-offices/knoxville",
      "city": "Knoxville"
    },
    {
      "lng": "-66.0649214",
      "lat": "18.4245548",
      "address": "Calle Carlos F. Chardun, San Juan, San Juan 00918, Puerto Rico",
      "url": "https://www.fbi.gov/contact-us/field-offices/sanjuan",
      "city": "San Juan" 
    },
    {
      "lng": "-96.10175079999999",
      "url": "https://www.fbi.gov/contact-us/field-offices/omaha",
      "city": "Omaha",
      "lat": "41.2153159",
      "address": "4411 S 121st St, Omaha, NE 68137, USA"
    },
    {
      "lng": "-90.1905236",
      "url": "https://www.fbi.gov/contact-us/field-offices/jackson",
      "city": "Jackson",
      "lat": "32.3947411",
      "address": "1220 Echelon Pkwy, Jackson, MS 39213, USA"
    },
    {
      "lng": "-81.127724",
      "url": "https://www.fbi.gov/contact-us/field-offices/columbia",
      "city": "Columbia",
      "lat": "34.060054",
      "address": "151 Westpark Blvd, Columbia, SC 29210, USA"
    },
    {
      "lng": "-74.00415250000003",
      "url": "https://www.fbi.gov/contact-us/field-offices/newyork",
      "city": "New York",
      "lat": "40.7155349",
      "address": "26 Federal Plaza, New York, NY 10278, USA"
    },
    {
      "lng": "-112.02024549999999",
      "url": "https://www.fbi.gov/contact-us/field-offices/saltlakecity",
      "city": "Salt Lake City",
      "lat": "40.7762878",
      "address": "5425 W Amelia Earhart Dr, Salt Lake City, UT 84116, USA"
    },
    {
      "lng": "-84.3719706",
      "url": "https://www.fbi.gov/contact-us/field-offices/cincinnati",
      "city": "Cincinnati",
      "lat": "39.1999041",
      "address": "2012 Ronald Reagan Dr, Cincinnati, OH 45236, USA"
    },
    {
      "lng": "-87.86058909999997",
      "url": "https://www.fbi.gov/contact-us/field-offices/milwaukee",
      "city": "Milwaukee",
      "lat": "42.9803157",
      "address": "3600 S Lake Dr, St Francis, WI 53235, USA"
    },
    {
      "lng": "-149.8822245",
      "url": "https://www.fbi.gov/contact-us/field-offices/anchorage",
      "city": "Anchorage",
      "lat": "61.2168585",
      "address": "101 E 6th Ave, Anchorage, AK 99501, USA"
    },
    {
      "lng": "-72.91989209999997",
      "url": "https://www.fbi.gov/contact-us/field-offices/newhaven",
      "city": "New Haven",
      "lat": "41.30883",
      "address": "600 State St, New Haven, CT 06511, USA"
    },
    {
      "lng": "-92.399382",
      "url": "https://www.fbi.gov/contact-us/field-offices/littlerock",
      "city": "Little Rock",
      "lat": "34.7421409",
      "address": "24 Shackleford W Blvd, Little Rock, AR 72211, USA"
    },
    {
      "lng": "-88.04153170000001",
      "url": "https://www.fbi.gov/contact-us/field-offices/mobile",
      "city": "Mobile",
      "lat": "30.6962519",
      "address": "200 N Royal St, Mobile, AL 36602, USA"
    },
    {
      "lng": "-117.21469910000002",
      "url": "https://www.fbi.gov/contact-us/field-offices/sandiego",
      "city": "San Diego",
      "lat": "32.8968136",
      "address": "10385 Vista Sorrento Pkwy, San Diego, CA 92121, USA"
    },
    {
      "lng": "-106.53671159999999",
      "url": "https://www.fbi.gov/contact-us/field-offices/elpaso",
      "city": "El Paso",
      "lat": "31.8155606",
      "address": "660 S Mesa Hills Dr, El Paso, TX 79912, USA"
    },
    {
      "lng": "-104.89568589999999",
      "url": "https://www.fbi.gov/contact-us/field-offices/denver",
      "city": "Denver",
      "lat": "39.7661927",
      "address": "8000 E 36th Ave, Denver, CO 80238, USA"
    },
    {
      "lng": "-115.16380040000001",
      "url": "https://www.fbi.gov/contact-us/field-offices/lasvegas",
      "city": "Las Vegas",
      "lat": "36.1943197",
      "address": "1787 W Lake Mead Blvd, Las Vegas, NV 89106, USA"
    },
    {
      "lng": "-97.57659590000003",
      "url": "https://www.fbi.gov/contact-us/field-offices/oklahomacity",
      "city": "Oklahoma City",
      "lat": "35.6111326",
      "address": "3301 W Memorial Rd, Oklahoma City, OK 73134, USA"
    },
    {
      "lng": "-98.59712960000002",
      "url": "https://www.fbi.gov/contact-us/field-offices/sanantonio",
      "city": "San Antonio",
      "lat": "29.57005109999999",
      "address": "5740 University Heights Blvd, San Antonio, TX 78249, USA"
    },
    {
      "lng": "-75.1508915",
      "url": "https://www.fbi.gov/contact-us/field-offices/philadelphia",
      "city": "Philadelphia",
      "lat": "39.9523912",
      "address": "600 Arch St, Philadelphia, PA 19106, USA"
    },
    {
      "lng": "-82.53922829999999",
      "url": "https://www.fbi.gov/contact-us/field-offices/tampa",
      "city": "Tampa",
      "lat": "27.9489754",
      "address": "5525 W Gray St, Tampa, FL 33609, USA"
    },
    {
      "lng": "-84.3065216",
      "url": "https://www.fbi.gov/contact-us/field-offices/atlanta",
      "city": "Atlanta",
      "lat": "33.8493638",
      "address": "2635 Century Pkwy NE #400, Atlanta, GA 30345, USA"
    },
    {
      "lng": "-90.21331350000003",
      "url": "https://www.fbi.gov/contact-us/field-offices/stlouis",
      "city": "St. Louis",
      "lat": "38.6300009",
      "address": "2222 Market St, St. Louis, MO 63103, USA"
    },
    {
      "lng": "-78.74253249999998",
      "url": "https://www.fbi.gov/contact-us/field-offices/buffalo",
      "city": "Buffalo",
      "lat": "43.0009639",
      "address": "Plaza Dr, Buffalo, NY 14221, USA"
    },
    {
      "lng": "-90.04292900000002",
      "url": "https://www.fbi.gov/contact-us/field-offices/neworleans",
      "city": "New Orleans", 
      "lat": "30.031038", 
      "address": "2901 Leon C Simon Dr, New Orleans, LA 70122, USA"
    },
    {
      "lng": "-77.01563799999997",
      "url": "https://www.fbi.gov/contact-us/field-offices/washingtondc",
      "city": "Washington",
      "lat": "38.8978362", 
      "address": "601 4th St NW, Washington, DC 20535, USA"
    },
    {
      "lng": "-83.05321679999997",
      "url": "https://www.fbi.gov/contact-us/field-offices/detroit",
      "city": "Detroit",
      "lat": "42.3311478",
      "address": "Patrick V. McNamara Federal Building, 477 Michigan Ave, Detroit, MI 48226, USA"
    },
    {
      "lng": "-95.48135400000001",
      "url": "https://www.fbi.gov/contact-us/field-offices/houston",
      "city": "Houston",
      "lat": "29.83625499999999",
      "address": "1 Justice Park Dr, Houston, TX 77092, USA"
    },
    {
      "lng": "-76.75262570000001",
      "url": "https://www.fbi.gov/contact-us/field-offices/baltimore",
      "city": "Baltimore",
      "lat": "39.326731",
      "address": "2600 Lord Baltimore Dr, Windsor Mill, MD 21244, USA"
    },
    {
      "lng": "-80.91961300000003",
      "url": "https://www.fbi.gov/contact-us/field-offices/charlotte",
      "city": "Charlotte",
      "lat": "35.1402157",
      "address": "7915 Microsoft Way, Charlotte, NC 28273, USA"
    },
    {
      "lng": "-86.81529089999998",
      "url": "https://www.fbi.gov/contact-us/field-offices/birmingham",
      "city": "Birmingham",
      "lat": "33.5230979",
      "address": "1000 18th St N, Birmingham, AL 35203, USA"
    },
    {
      "lng": "-86.06284499999998",
      "url": "https://www.fbi.gov/contact-us/field-offices/indianapolis",
      "city": "Indianapolis",
      "lat": "39.915602",
      "address": "8825 Nelson B Klein Pkwy, Indianapolis, IN 46250, USA"
    },
    {
      "lng": "-122.41809690000002",
      "url": "https://www.fbi.gov/contact-us/field-offices/sanfrancisco",
      "city": "San Francisco",
      "lat": "37.78194999999999",
      "address": "Phillip Burton Federal Building, 450 Golden Gate Ave, San Francisco, CA 94102, USA"
    },
    {
      "lng": "-112.06428870000002",
      "url": "https://www.fbi.gov/contact-us/field-offices/phoenix",
      "city": "Phoenix",
      "lat": "33.6827738", 
      "address": "21711 N 7th St, Phoenix, AZ 85024, USA"
    },
    {
      "lng": "-158.06852100000003",
      "url": "https://www.fbi.gov/contact-us/field-offices/honolulu",
      "city": "Honolulu",
      "lat": "21.3174224",
      "address": "91 Enterprise St, Kapolei, HI 96707, USA"
    },
    {
      "lng": "-79.95896149999999",
      "url": "https://www.fbi.gov/contact-us/field-offices/pittsburgh",
      "city": "Pittsburgh",
      "lat": "40.4224964",
      "address": "3311 E Carson St, Pittsburgh, PA 15203, USA"
    },
    {
      "lng": "-74.16458879999999",
      "url": "https://www.fbi.gov/contact-us/field-offices/newark",
      "city": "Newark",
      "lat": "40.7383529",
      "address": "11 Centre Pl, Newark, NJ 07102, USA"
    },
    {
      "lng": "-96.89159319999999",
      "url": "https://www.fbi.gov/contact-us/field-offices/dallas",
      "city": "Dallas",
      "lat": "32.8554283",
      "address": "Justice Way, Dallas, TX 75220, USA"
    },
    {
      "lng": "-118.44840349999998",
      "url": "https://www.fbi.gov/contact-us/field-offices/losangeles",
      "city": "Los Angeles",
      "lat": "34.0562625",
      "address": "Wilshire Federal Building, 11000 Wilshire Blvd #1700, Los Angeles, CA 90024, USA"
    },
    {
      "lng": "-85.52857770000003",
      "url": "https://www.fbi.gov/contact-us/field-offices/louisville",
      "city": "Louisville",
      "lat": "38.2214139",
      "address": "12401 Sycamore Station Pl, Louisville, KY 40299, USA"
    },
    {
      "lng": "-106.612865",
      "url": "https://www.fbi.gov/contact-us/field-offices/albuquerque",
      "city": "Albuquerque",
      "lat": "35.128816",
      "address": "4200 Luecking Park Ave NE, Albuquerque, NM 87107, USA"
    },
    {
      "lng": "-89.86360539999998",
      "url": "https://www.fbi.gov/contact-us/field-offices/memphis",
      "city": "Memphis",
      "lat": "35.1332396",
      "address": "225 N Humphreys Blvd #3000, Memphis, TN 38120, USA"
    },
    {
      "lng": "-81.6865406",
      "url": "https://www.fbi.gov/contact-us/field-offices/cleveland",
      "city": "Cleveland",
      "lat": "41.5088566",
      "address": "1501 Lakeside Ave E, Cleveland, OH 44114, USA"
    },
    {
      "lng": "-73.772962",
      "url": "https://www.fbi.gov/contact-us/field-offices/albany",
      "city": "Albany",
      "lat": "42.634487",
      "address": "200 McCarty Ave, Albany, NY 12209, USA"
    },
    {
      "lng": "-80.33771819999998",
      "url": "https://www.fbi.gov/contact-us/field-offices/miami",
      "city": "Miami",
      "lat": "25.9910484",
      "address": "2030 SW 145th Ave, Miramar, FL 33027, USA"
    },
    {
      "lng": "-71.06050909999999",
      "url": "https://www.fbi.gov/contact-us/field-offices/boston",
      "city": "Boston",
      "lat": "42.3601477",
      "address": "1 Center Plz #600, Boston, MA 02108, USA"
    },
    {
      "lng": "-93.30103170000001",
      "url": "https://www.fbi.gov/contact-us/field-offices/minneapolis",
      "city": "Minneapolis",
      "lat": "45.0720101",
      "address": "1501 Freeway Blvd, Minneapolis, MN 55430, USA"
    },
    {
      "lng": "-122.33452499999999",
      "url": "https://www.fbi.gov/contact-us/field-offices/seattle",
      "city": "Seattle",
      "lat": "47.60668099999999",
      "address": "1110 3rd Ave, Seattle, WA 98101, USA"
    },
    {
      "lng": "-94.5941173",
      "url": "https://www.fbi.gov/contact-us/field-offices/kansascity",
      "city": "Kansas City",
      "lat": "39.0975095",
      "address": "1300 Summit St, Kansas City, MO 64105, USA"
    },
    {
      "lng": "-121.3594167",
      "url": "https://www.fbi.gov/contact-us/field-offices/sacramento",
      "city": "Sacramento",
      "lat": "38.6466833",
      "address": "4500 Orange Grove Ave, Sacramento, CA 95841, USA"
    },
    {
      "lng": "-87.67979709999997",
      "url": "https://www.fbi.gov/contact-us/field-offices/chicago",
      "city": "Chicago",
      "lat": "41.8657563",
      "address": "2111 W Roosevelt Rd, Chicago, IL 60608, USA"
    },
    {
      "lng": "-77.48473899999999",
      "url": "https://www.fbi.gov/contact-us/field-offices/richmond",
      "city": "Richmond",
      "lat": "37.641351",
      "address": "1970 E Parham Rd, Richmond, VA 23228, USA"
    },
    {
      "lng": "-76.22197570000003",
      "url": "https://www.fbi.gov/contact-us/field-offices/norfolk",
      "city": "Norfolk",
      "lat": "36.73247850000001",
      "address": "509 Resource Row, Chesapeake, VA 23320, USA"
    },
    {
      "lng": "-122.56972480000002",
      "url": "https://www.fbi.gov/contact-us/field-offices/portland",
      "city": "Portland",
      "lat": "45.5780499",
      "address": "9109 NE Cascades Pkwy, Portland, OR 97220, USA"
    },
    {
      "lng": "-81.522603",
      "url": "https://www.fbi.gov/contact-us/field-offices/jacksonville",
      "city": "Jacksonville",
      "lat": "30.249052",
      "address": "6061 Gate Pkwy, Jacksonville, FL 32256, USA"
    },
    {
      "lng": "-89.64305919999998",
      "url": "https://www.fbi.gov/contact-us/field-offices/springfield",
      "city": "Springfield",
      "lat": "39.7643797",
      "address": "900 E Linton Ave, Springfield, IL 62703, USA"
    }
  ]
}